City,Cloudiness,Country,Date,Humidity,Lat,Lng,Max Temp,Wind Speed
Punta Arenas,20,CL,1630304372,86,-53.15,-70.9167,32.11,6.91
Ushuaia,20,AR,1630304384,75,-54.8,-68.3,35.26,12.66
Thompson,1,CA,1630304133,81,55.7435,-97.8558,48.36,0.0
Takoradze,100,GH,1630304385,89,4.8845,-1.7554,75.87,9.66
Jamestown,90,US,1630304384,98,42.097,-79.2353,70.18,4.0
Clyde River,61,CA,1630304111,84,70.4692,-68.5914,35.37,3.71
Salcedo,95,PH,1630304385,70,12.8105,121.4674,85.66,6.38
Saskylakh,100,RU,1630304385,97,71.9167,114.0833,38.07,6.49
Wajir,13,KE,1630304386,51,1.7471,40.0573,78.66,17.96
Esim,100,GH,1630304386,88,4.8699,-2.2405,75.88,10.13
Arraial do Cabo,40,BR,1630304386,88,-22.9661,-42.0278,67.96,3.44
Saint Anthony,1,US,1630304387,82,45.0205,-93.218,66.29,4.61
Atuona,7,PF,1630304387,75,-9.8,-139.0333,78.17,17.96
Touros,66,BR,1630304387,87,-5.1989,-35.4608,74.3,14.29
Sinnamary,100,GF,1630304388,89,5.3833,-52.95,77.63,7.4
Lake Havasu City,1,US,1630304274,28,34.4839,-114.3224,96.1,3.0
Kapaa,20,US,1630304388,76,22.0752,-159.319,80.58,9.22
Severo-Kuril'sk,97,RU,1630304388,93,50.6789,156.125,54.84,6.76
Rikitea,4,PF,1630304389,70,-23.1203,-134.9692,73.83,16.82
Port Alfred,56,ZA,1630304389,29,-33.5906,26.891,61.39,12.03
Verkhnyaya Sinyachikha,58,RU,1630304389,54,57.976,61.6673,55.99,6.51
Byron Bay,34,AU,1630304390,46,-28.65,153.6167,75.31,8.75
Bay Roberts,79,CA,1630304390,84,47.5999,-53.2648,55.33,5.99
Hilo,40,US,1630304138,80,19.7297,-155.09,76.28,5.75
Provideniya,90,RU,1630304390,93,64.3833,-173.3,48.31,11.18
Isangel,75,VU,1630304391,65,-19.55,169.2667,77.11,4.61
Jacmel,73,HT,1630304391,83,18.2342,-72.5347,80.44,2.59
Avera,75,US,1630304391,75,33.194,-82.5271,76.87,4.21
Caucayá,100,CO,1630304392,99,-0.1934,-74.7819,70.47,0.78
Scarborough,34,GB,1630304134,82,54.2797,-0.4044,57.52,4.0
Teya,100,RU,1630304392,62,60.3778,92.6267,63.0,4.5
Tuktoyaktuk,65,CA,1630304392,87,69.4541,-133.0374,42.73,11.52
Bonavista,100,CA,1630304393,94,48.6499,-53.1147,55.11,26.75
Nikolskoye,64,RU,1630304393,75,59.7035,30.7861,58.89,6.71
Hermanus,29,ZA,1630304394,62,-34.4187,19.2345,52.9,15.52
Ponta do Sol,25,PT,1630304394,74,32.6667,-17.1,73.71,6.17
Camaná,47,PE,1630304394,77,-16.6228,-72.7111,61.9,9.66
Saint Paul Harbor,1,US,1630304394,71,57.79,-152.4072,54.91,5.75
Gambēla,100,ET,1630304395,91,8.25,34.5833,74.12,0.65
Mataura,5,NZ,1630304395,76,-46.1927,168.8643,45.48,5.28
Katsuura,4,JP,1630304395,78,35.1333,140.3,87.91,14.92
Evensk,7,RU,1630304396,58,61.95,159.2333,61.99,2.44
Tuensang,95,IN,1630304396,94,26.2833,94.8333,75.85,1.25
Vaini,20,TO,1630304396,88,-21.2,-175.2,71.76,3.44
Kaitangata,4,NZ,1630304397,72,-46.2817,169.8464,43.16,12.55
Busselton,100,AU,1630304397,81,-33.65,115.3333,61.05,18.99
San Felipe,64,VE,1630304397,98,10.3399,-68.7425,70.86,1.9
Lavrentiya,100,RU,1630304397,97,65.5833,-171.0,44.22,7.09
Hashtgerd,0,IR,1630304398,18,35.9642,50.6858,84.76,7.45
Auki,99,SB,1630304398,78,-8.7676,160.7034,81.52,7.65
Valparaíso,90,CL,1630304398,93,-33.0393,-71.6273,53.24,2.3
Vao,98,NC,1630304399,63,-22.6667,167.4833,68.67,9.22
Vila Franca do Campo,42,PT,1630304399,91,37.7167,-25.4333,68.41,6.73
Narasannapeta,96,IN,1630304399,73,18.4167,84.05,84.97,9.57
Avarua,75,CK,1630304400,73,-21.2078,-159.775,73.45,10.36
Berlevåg,75,NO,1630304400,82,70.8578,29.0864,53.55,8.05
Vrútky,100,SK,1630304400,94,49.1133,18.9171,54.07,2.77
Phalaborwa,0,ZA,1630304401,65,-23.943,31.1411,58.28,4.32
Port Lincoln,16,AU,1630304401,49,-34.7333,135.8667,65.21,23.0
Khatanga,100,RU,1630304401,59,71.9667,102.5,42.66,9.75
Albany,75,US,1630304399,92,42.6001,-73.9662,72.09,4.34
Kirakira,60,SB,1630304404,79,-10.4544,161.9205,81.28,15.93
Puerto Ayora,14,EC,1630304405,93,-0.7393,-90.3518,67.55,1.99
Filingué,77,NE,1630304405,56,14.3521,3.3168,80.8,4.59
Constitución,22,CL,1630304405,95,-35.3333,-72.4167,51.58,1.16
Bluff,3,NZ,1630304406,70,-46.6,168.3333,45.81,17.96
Cap Malheureux,96,MU,1630304406,71,-19.9842,57.6142,75.47,10.0
Algiers,0,DZ,1630304406,78,36.7525,3.042,71.42,2.3
Saint George,1,US,1630304146,20,37.1041,-113.5841,88.79,1.99
Bengkulu,59,ID,1630304407,65,-3.8004,102.2655,84.81,8.19
Chui,1,UY,1630304407,95,-33.6971,-53.4616,53.94,6.98
São Filipe,42,CV,1630304407,76,14.8961,-24.4956,78.46,3.83
Stepantsevo,99,RU,1630304408,53,56.1314,41.7032,65.34,9.42
George Town,20,MY,1630304110,73,5.4112,100.3354,88.9,6.91
Margate,99,GB,1630304408,91,51.3813,1.3862,61.3,4.0
Narón,100,ES,1630304408,84,43.5167,-8.1528,63.45,4.38
Pisco,75,PE,1630304409,88,-13.7,-76.2167,58.01,2.3
Jining,100,CN,1630304409,96,35.405,116.5814,74.14,1.61
Ribeira Grande,40,PT,1630304409,94,38.5167,-28.7,72.0,5.75
Klaksvík,99,FO,1630304410,88,62.2266,-6.589,52.72,7.7
Kieta,87,PG,1630304410,81,-6.2167,155.6333,82.45,8.9
Tiksi,100,RU,1630304410,87,71.6872,128.8694,37.65,8.79
Bairiki Village,75,KI,1630304411,70,1.3292,172.9752,84.2,14.97
Portland,1,US,1630304406,71,45.5234,-122.6762,65.61,1.99
Port Elizabeth,0,ZA,1630304357,66,-33.918,25.5701,60.1,5.75
Ţahţā,0,EG,1630304411,21,26.7693,31.5021,90.28,12.03
Mehamn,100,NO,1630304411,87,71.0357,27.8492,53.51,12.95
Dhārchula,44,IN,1630304412,78,29.85,80.5333,78.96,5.55
Fairbanks,90,US,1630304412,81,64.8378,-147.7164,52.09,6.91
Nanortalik,75,GL,1630304412,78,60.1432,-45.2371,44.08,2.53
Warrnambool,65,AU,1630304413,70,-38.3833,142.4833,62.82,17.58
Hanchuan,72,CN,1630304413,62,30.65,113.7667,95.11,10.38
Barrow,90,US,1630304224,69,71.2906,-156.7887,35.62,4.61
Imperial Beach,20,US,1630304413,87,32.5839,-117.1131,77.77,1.99
Krasnoarmeysk,4,RU,1630304414,25,51.0239,45.6969,66.29,8.41
Saint-Joseph,34,RE,1630304414,83,-21.3667,55.6167,75.58,11.39
Zaragoza,75,ES,1630304414,59,41.6561,-0.8773,66.34,7.0
Itarema,66,BR,1630304415,82,-2.9248,-39.9167,77.7,13.85
New Norfolk,98,AU,1630304415,68,-42.7826,147.0587,60.3,4.0
Yerbogachën,74,RU,1630304415,50,61.2767,108.0108,61.77,5.41
Pimentel,90,PE,1630304416,88,-6.8367,-79.9342,62.78,10.6
Qaanaaq,91,GL,1630304416,82,77.484,-69.3632,30.33,6.35
Leningradskiy,86,RU,1630304416,86,69.3833,178.4167,35.71,7.45
Perth,40,AU,1630304390,64,-31.9333,115.8333,67.01,16.11
Pangnirtung,72,CA,1630304417,89,66.1451,-65.7125,37.92,0.45
Yeniseysk,83,RU,1630304417,57,58.4497,92.1703,73.2,6.87
Monrovia,100,LR,1630304298,90,6.3005,-10.7969,73.17,4.27
Hobart,75,AU,1630304417,56,-42.8794,147.3294,60.66,1.99
Svetlaya,42,RU,1630304418,85,46.5389,138.3297,66.31,6.44
Ol'ga,27,RU,1630304418,74,43.7444,135.2892,66.22,6.04
Hofn,100,IS,1630304418,83,64.2539,-15.2082,53.91,8.05
Hasaki,3,JP,1630304419,75,35.7333,140.8333,91.8,15.88
Holly Hill,40,US,1630304419,69,29.2436,-81.0376,81.01,0.0
Massena,44,US,1630304419,93,44.9281,-74.8919,76.12,10.54
Moses Lake,1,US,1630304420,43,47.1301,-119.2781,72.61,4.61
Palas,92,ID,1630304420,59,-5.6519,105.6801,87.75,7.56
Englehart,1,CA,1630304420,82,47.8169,-79.8664,64.96,12.66
Chara,29,RU,1630304421,32,56.9064,118.2631,73.33,1.54
Fare,0,PF,1630304421,77,-16.7,-151.0167,78.69,17.25
Bredasdorp,0,ZA,1630304421,41,-34.5322,20.0403,54.72,13.8
Sur,8,OM,1630304422,56,22.5667,59.5289,87.57,2.55
Antofagasta,8,CL,1630304422,60,-23.65,-70.4,54.68,3.42
Saint-Philippe,52,RE,1630304422,85,-21.3585,55.7679,76.59,14.16
Talaya,15,RU,1630304422,34,61.3833,152.75,65.73,3.78
Norman Wells,75,CA,1630304423,82,65.282,-126.8329,53.64,8.05
Hambantota,100,LK,1630304423,63,6.1241,81.1185,86.32,19.22
Ostrovnoy,100,RU,1630304424,70,68.0531,39.5131,46.98,8.28
Yellowknife,75,CA,1630304424,88,62.456,-114.3525,59.52,3.44
Lashma,99,RU,1630304424,45,54.9321,41.1438,70.77,8.34
Ulverstone,100,AU,1630304424,89,-41.15,146.1667,54.28,12.53
Castro,94,BR,1630304425,92,-24.7911,-50.0119,52.66,7.25
Gamba,99,GA,1630304425,87,-2.65,10.0,73.89,3.62
San Quintín,49,MX,1630304425,86,30.4833,-115.95,69.91,10.04
Catabola,1,AO,1630304426,31,-12.15,17.2833,63.0,3.36
Northam,0,GB,1630304426,82,51.0333,-4.2167,59.61,9.57
Kahului,1,US,1630304426,74,20.8947,-156.47,78.82,9.22
Narsaq,40,GL,1630304427,58,60.9167,-46.05,43.02,5.86
Carroll,18,US,1630304427,83,39.5501,-77.0164,73.8,4.63
Cherskiy,100,RU,1630304427,71,68.75,161.3,49.3,1.95
Skjervøy,100,NO,1630304428,86,70.0311,20.9714,50.18,5.82
Lompoc,90,US,1630304000,93,34.6391,-120.4579,62.28,3.44
Talcahuano,90,CL,1630304428,94,-36.7167,-73.1167,53.28,4.61
Hirara,40,JP,1630304428,70,24.8,125.2833,89.87,13.8
Hay River,75,CA,1630304429,94,60.8156,-115.7999,57.18,2.3
Tynda,5,RU,1630304429,51,55.1667,124.7167,66.87,4.97
Salta,0,AR,1630304429,66,-24.7859,-65.4117,52.09,2.3
Ancud,100,CL,1630304430,87,-41.8697,-73.8203,51.42,11.32
Sola,90,VU,1630304430,74,-13.8833,167.55,81.27,5.75
Raymond,100,US,1630304430,89,43.9015,-70.4703,65.08,4.14
Hithadhoo,70,MV,1630304431,73,-0.6,73.0833,81.95,5.19
Victoria Point,34,AU,1630304431,53,-27.5833,153.3,77.43,1.99
Chokurdakh,99,RU,1630304431,80,70.6333,147.9167,46.22,9.6
Sainte-Thècle,100,CA,1630304432,98,46.8168,-72.4991,66.79,5.17
Coquimbo,90,CL,1630304432,87,-29.9533,-71.3436,55.13,5.75
Vangaindrano,2,MG,1630304432,79,-23.35,47.6,73.87,3.87
Siilinjärvi,0,FI,1630304433,82,63.0833,27.6667,53.62,8.05
East London,0,ZA,1630304433,30,-33.0153,27.9116,58.14,10.36
Cayenne,75,GF,1630304433,91,4.9333,-52.3333,77.04,1.01
Huarmey,77,PE,1630304434,86,-10.0681,-78.1522,62.65,5.75
Salalah,99,OM,1630304434,94,17.0151,54.0924,77.09,8.05
Nantucket,1,US,1630304147,86,41.2835,-70.0995,73.0,6.91
Rio Grande,0,BR,1630304434,90,-32.035,-52.0986,57.83,11.81
Praia da Vitória,20,PT,1630304435,78,38.7333,-27.0667,70.05,3.27
Elk Point,0,US,1630304435,66,42.6833,-96.6836,66.74,3.74
Henties Bay,0,NA,1630304435,73,-22.116,14.2845,55.6,6.91
Cidreira,0,BR,1630304436,86,-30.1811,-50.2056,60.44,19.48
Lebu,95,CL,1630304436,88,-37.6167,-73.65,51.15,6.31
Lagoa,2,PT,1630304436,84,39.05,-27.9833,70.63,4.23
Preobrazheniye,10,RU,1630304437,55,42.9019,133.9064,73.76,18.05
San Cristobal,86,VE,1630304437,98,7.7669,-72.225,66.18,2.55
Carnarvon,30,AU,1630304383,54,-24.8667,113.6333,71.67,21.85
Umba,52,RU,1630304437,74,66.6871,34.3429,48.56,7.23
Mar del Plata,0,AR,1630304339,93,-38.0023,-57.5575,48.22,6.91
Sarakhs,0,IR,1630304438,17,36.5449,61.1577,95.14,4.61
Okha,100,RU,1630304438,97,53.5739,142.9478,56.95,4.68
Atikokan,49,CA,1630304438,98,48.7555,-91.6216,55.33,5.39
Maragogi,24,BR,1630304439,85,-9.0122,-35.2225,73.78,8.23
Mango,40,US,1630304439,95,27.9797,-82.3065,79.14,0.0
Tanete,87,ID,1630304439,55,-3.9443,119.7848,88.63,13.44
Poso,61,ID,1630304440,83,-1.3959,120.7524,82.26,2.98
Aklavik,98,CA,1630304440,67,68.2191,-135.0107,52.63,6.91
Butaritari,25,KI,1630304440,69,3.0707,172.7902,84.07,18.72
Vestmanna,90,FO,1630304441,100,62.1564,-7.1664,50.92,16.11
Kota Kinabalu,20,MY,1630304441,74,5.9749,116.0724,87.78,9.22
Payo,85,ID,1630304441,51,-3.7508,103.6372,89.76,5.03
La Paz,20,BO,1630304442,100,-16.5,-68.15,33.78,9.22
Libochovice,42,CZ,1630304442,96,50.4063,14.0444,56.19,2.37
Mananjary,39,MG,1630304442,81,-21.2167,48.3333,73.62,2.28
Ilebo,24,CD,1630304442,81,-4.3167,20.5833,76.15,2.01
Darnah,0,LY,1630304443,55,32.767,22.6367,82.13,6.35
Qiqihar,0,CN,1630304443,57,47.3408,123.9672,66.31,5.99
Torbay,90,CA,1630304443,93,47.6666,-52.7314,54.57,17.27
Beyneu,0,KZ,1630304444,34,45.3167,55.2,79.23,7.49
Batemans Bay,100,AU,1630304444,58,-35.7167,150.1833,62.98,8.03
Ipixuna,71,BR,1630304444,95,-1.7625,-48.8043,76.95,3.13
Bowen,37,AU,1630304445,79,-20.0167,148.2333,75.85,12.84
Khani,1,GE,1630304445,38,41.9563,42.9566,76.57,3.74
Tasiilaq,1,GL,1630304445,64,65.6145,-37.6368,39.36,5.39
Saldanha,18,ZA,1630304446,82,-33.0117,17.9442,39.25,10.47
Taoudenni,28,ML,1630304446,20,22.6783,-3.9836,94.46,7.14
Itaituba,79,BR,1630304446,97,-4.2761,-55.9836,72.16,1.34
Cape Town,75,ZA,1630304237,83,-33.9258,18.4232,53.89,7.0
Quatis,91,BR,1630304447,97,-22.4072,-44.2581,61.14,1.9
Codajás,100,BR,1630304447,99,-3.8367,-62.0569,72.61,2.86
San Buenaventura,98,MX,1630304447,54,27.0833,-101.5333,85.12,9.57
Ahipara,39,NZ,1630304448,93,-35.1667,173.1667,57.96,12.35
San Patricio,39,US,1630304448,76,28.017,-97.5169,84.09,6.17
Masvingo,97,ZW,1630304448,75,-20.0637,30.8277,54.88,6.22
Krasnovishersk,93,RU,1630304449,59,60.4078,57.082,49.73,7.14
Jalu,0,LY,1630304449,27,29.0331,21.5482,84.18,10.38
Riberalta,16,BO,1630304449,55,-10.9833,-66.1,76.59,3.02
Galeana,99,MX,1630304450,57,24.8333,-100.0667,62.31,0.76
Caravelas,11,BR,1630304450,88,-17.7125,-39.2481,68.56,4.94
Ouadda,99,CF,1630304450,97,8.0777,22.4007,66.79,4.03
Muncar,68,ID,1630304451,61,-8.4333,114.3333,85.55,10.92
Vargashi,50,RU,1630304451,40,55.3556,65.8467,63.03,8.77
Sakaiminato,75,JP,1630304451,74,35.55,133.2333,85.93,6.91
Cockburn Town,14,TC,1630304452,80,21.4612,-71.1419,80.74,7.76
Bariloche,75,AR,1630304163,100,-41.1456,-71.3082,35.35,0.0
Carutapera,86,BR,1630304452,81,-1.195,-46.02,78.51,10.89
Tura,51,IN,1630304452,84,25.5198,90.2201,81.81,4.16
Virginia Beach,20,US,1630304241,93,36.8529,-75.978,78.03,3.44
Mahajanga,20,MG,1630304453,51,-15.7167,46.3167,86.02,11.5
Port Macquarie,68,AU,1630304392,49,-31.4333,152.9167,64.36,7.29
Faanui,1,PF,1630304453,73,-16.4833,-151.75,79.09,17.18
Wanning,100,CN,1630304453,68,18.8003,110.3967,87.67,8.61
Göksun,0,TR,1630304454,29,38.021,36.4973,70.75,1.5
Izhmorskiy,66,RU,1630304454,40,56.194,86.6414,76.44,8.86
Ban Nahin,64,LA,1630304454,44,18.2418,104.2122,94.98,2.89
Atambua,100,ID,1630304455,43,-9.1061,124.8925,85.32,1.86
Lake Cowichan,73,CA,1630304455,90,48.825,-124.0546,64.18,3.53
Chegutu,2,ZW,1630304456,65,-18.1302,30.1407,59.58,8.23
Meulaboh,78,ID,1630304456,63,4.1363,96.1285,85.46,5.41
Galveston,68,US,1630304456,85,29.3669,-94.9669,85.95,7.23
Toora-Khem,9,RU,1630304456,36,52.4675,96.11,74.1,2.48
Pevek,75,RU,1630304457,70,69.7008,170.3133,38.8,4.9
Soe,94,ID,1630304457,24,-9.8607,124.284,84.96,11.97
Mangai,49,CD,1630304457,78,-4.05,19.5333,76.08,2.15
Manuk Mangkaw,68,PH,1630304458,73,4.8,119.85,82.78,3.96
Poum,99,NC,1630304458,74,-20.2333,164.0167,73.33,7.7
Kalevala,11,RU,1630304458,68,65.2,31.1667,49.91,4.59
Keetmanshoop,0,NA,1630304459,16,-26.5833,18.1333,50.92,10.36
Ladário,0,BR,1630304459,81,-19.0047,-57.6017,67.15,2.62
Port Moresby,40,PG,1630304459,62,-9.4431,147.1797,87.22,17.27
Muros,89,ES,1630304460,94,42.7762,-9.0603,63.23,3.22
Olafsvik,100,IS,1630304460,96,64.8945,-23.7142,52.74,10.74
Kanigoro,97,ID,1630304460,59,-8.13,112.219,84.36,12.12
Cabul-an,98,PH,1630304461,69,10.15,124.05,84.72,5.12
Sayyan,88,YE,1630304461,21,15.1718,44.3244,72.95,5.08
Pimenta Bueno,54,BR,1630304461,42,-11.6725,-61.1936,77.9,2.64
Msanga,72,TZ,1630304461,40,-6.05,36.0333,72.59,9.08
Parrita,89,CR,1630304180,87,9.5201,-84.3225,80.51,2.82
Simao,29,CN,1630304462,62,22.7886,100.9748,79.23,3.53
Morón,0,AR,1630304462,87,-34.6534,-58.6198,58.98,5.86
Laramie,1,US,1630304462,73,41.3114,-105.5911,59.09,3.0
São Gabriel da Cachoeira,100,BR,1630304463,100,-0.1303,-67.0892,71.55,1.7
Ixtapa,100,MX,1630304463,100,20.7,-105.2,75.22,3.38
Ziro,93,IN,1630304463,93,27.6333,93.8333,64.99,2.59
Águas Formosas,41,BR,1630304464,91,-17.0822,-40.9358,65.3,2.84
Vardø,75,NO,1630304464,87,70.3705,31.1107,51.55,8.05
Kalmunai,100,LK,1630304464,55,7.4167,81.8167,85.77,1.03
Pinawa,64,CA,1630304465,94,50.1489,-95.8811,55.53,4.0
Ucluelet,91,CA,1630304465,89,48.9329,-125.5528,61.09,9.86
Mackay,29,AU,1630304465,80,-21.15,149.2,77.04,10.31
Iqaluit,90,CA,1630304466,93,63.7506,-68.5145,40.73,0.0
Garden City,40,US,1630304466,95,42.3256,-83.331,73.98,10.36
Concepción,90,CL,1630304466,94,-36.827,-73.0498,53.4,4.61
Okoneshnikovo,62,RU,1630304467,46,54.8377,75.0834,59.7,13.02
Polyarny,80,RU,1630304467,73,69.1989,33.4478,39.67,7.09
Visby,40,SE,1630304467,94,57.6409,18.296,62.06,10.36
Mayo,1,US,1630304467,94,38.8876,-76.5119,75.9,0.0
Sitka,90,US,1630304468,76,57.0531,-135.33,55.29,4.61
Fomboni,49,KM,1630304468,77,-12.28,43.7425,78.17,8.79
Upernavik,98,GL,1630304469,80,72.7868,-56.1549,36.39,4.32
Coahuayana Viejo,100,MX,1630304469,93,18.7333,-103.6833,75.96,3.09
Naze,19,JP,1630304469,66,28.3667,129.4833,85.12,6.53
Fortuna,90,US,1630304469,74,40.5982,-124.1573,57.42,1.01
Coxim,0,BR,1630304470,74,-18.5067,-54.76,69.89,4.88
Wahiawā,1,US,1630304470,74,21.5028,-158.0236,77.32,0.0
Bilma,80,NE,1630304470,21,18.6853,12.9164,91.62,2.93
Cabedelo,28,BR,1630304471,82,-6.9811,-34.8339,74.07,12.35
Sørland,90,NO,1630304471,76,67.667,12.6934,53.67,11.5
Dingle,78,PH,1630304471,67,10.9995,122.6711,87.46,4.54
Tonj,100,SS,1630304472,84,7.2737,28.6822,72.07,4.14
Half Moon Bay,1,US,1630304383,87,37.4636,-122.4286,73.0,0.0
Springdale,1,US,1630304421,89,36.1867,-94.1288,73.99,3.44
Dunedin,10,NZ,1630304472,66,-45.8742,170.5036,43.81,1.01
Kavieng,85,PG,1630304472,76,-2.5744,150.7967,82.89,10.78
Ilulissat,75,GL,1630304473,93,69.2167,-51.1,35.62,2.3
Kibakwe,59,TZ,1630304473,36,-6.7167,36.3667,73.04,5.08
Biasca,23,CH,1630304473,78,46.3597,8.9697,63.32,6.51
Linjiang,14,CN,1630304473,39,41.8069,126.9078,79.74,11.45
Teacapan,100,MX,1630304474,96,22.55,-105.75,75.16,7.85
Gornozavodsk,63,RU,1630304474,60,58.3758,58.3211,53.91,8.25
Foam Lake,30,CA,1630304296,64,51.65,-103.5343,57.22,4.68
Olinda,40,BR,1630304474,65,-8.0089,-34.8553,76.73,8.05
Bethel,90,US,1630304475,93,41.3712,-73.414,72.03,3.44
Cabra,24,ES,1630304475,77,37.4725,-4.4421,64.9,1.52
Sarh,20,TD,1630304475,88,9.1429,18.3923,71.51,6.91
Port Hedland,33,AU,1630304476,54,-20.3167,118.5667,82.45,13.8
Kavaratti,100,IN,1630304476,81,10.5669,72.642,79.97,17.81
Buta,98,CD,1630304476,91,2.7858,24.73,71.74,1.79
Ambilobe,14,MG,1630304477,45,-13.2,49.05,85.15,2.48
Agropoli,8,IT,1630304477,64,40.3469,14.9966,77.29,4.99
Haţeg,92,RO,1630304477,90,45.6167,22.95,56.32,2.17
Souillac,75,MU,1630304478,69,-20.5167,57.5167,75.58,14.97
Boussé,100,BF,1630304478,77,12.6606,-1.8922,74.77,6.91
Walvis Bay,0,NA,1630304478,29,-22.9575,14.5053,49.15,5.75
Karpogory,100,RU,1630304479,82,64.0019,44.4451,47.03,3.91
Lorengau,16,PG,1630304479,69,-2.0226,147.2712,85.1,7.0
Assiut,0,EG,1630304479,26,27.181,31.1837,89.8,14.2
Drumnadrochit,99,GB,1630304480,85,57.3344,-4.4799,54.57,3.36
Rock Sound,2,BS,1630304480,74,24.9,-76.2,81.73,3.4
Labuhan,100,ID,1630304480,60,-6.8844,112.2051,87.15,11.63
Airai,100,TL,1630304480,31,-8.9266,125.4092,78.22,4.92
Alofi,40,NU,1630304481,83,-19.0595,-169.9187,73.29,9.22
Sioux Lookout,75,CA,1630304481,94,50.1001,-91.917,60.87,5.75
Angoche,40,MZ,1630304481,62,-16.2325,39.9086,76.98,13.24
Bathsheba,20,BB,1630304482,83,13.2167,-59.5167,77.61,3.44
Fort Frances,1,CA,1630304296,74,48.5999,-93.4003,57.42,5.75
Tapiramutá,59,BR,1630304482,99,-11.8472,-40.7914,58.51,3.58
Nelidovo,100,RU,1630304482,98,56.2211,32.7774,54.07,4.74
Hualmay,82,PE,1630304483,84,-11.0964,-77.6139,61.74,6.22
Namwala,3,ZM,1630304483,54,-15.7504,26.4384,69.35,11.56
Stykkisholmur,100,IS,1630304483,96,65.0757,-22.7297,53.02,7.78
Zhangaözen,0,KZ,1630304484,27,43.3,52.8,82.6,9.66
Sobolevo,100,RU,1630304484,95,54.4299,31.8996,59.88,8.46
Esperance,86,AU,1630304484,69,-33.8667,121.9,62.78,17.69
Zyryanka,80,RU,1630304485,41,65.75,150.85,66.78,5.39
Ndélé,100,CF,1630304485,95,8.4109,20.6473,68.4,1.95
Longyearbyen,75,SJ,1630304485,81,78.2186,15.6401,44.44,5.75
Rawson,100,AR,1630304486,54,-43.3002,-65.1023,56.86,9.26
Qasigiannguit,100,GL,1630304486,91,68.8193,-51.1922,35.85,1.81
Sandwick,40,GB,1630304486,76,60.0,-1.25,53.42,4.61
Bridlington,13,GB,1630304487,95,54.0831,-0.1919,59.18,18.19
Macapá,75,BR,1630304487,94,0.0389,-51.0664,80.58,4.61
Chihuahua,88,MX,1630304487,70,28.5,-106.0,68.05,6.13
Pécsvárad,69,HU,1630304487,81,46.1603,18.4232,55.17,8.97
Kruisfontein,25,ZA,1630304488,31,-34.0033,24.7314,57.88,7.09
Conakry,75,GN,1630304203,94,9.538,-13.6773,77.07,6.91
Province of Mantua,32,IT,1630304488,80,45.1667,10.7833,67.24,1.99
Bubaque,100,GW,1630304489,83,11.2833,-15.8333,77.74,20.36
Hamilton,75,US,1630304238,86,39.1834,-84.5333,78.78,3.44
Sherlovaya Gora,1,RU,1630304489,35,50.5667,116.25,74.03,7.72
São João da Barra,7,BR,1630304489,93,-21.6403,-41.0511,66.45,9.66
Tuatapere,5,NZ,1630304490,77,-46.1333,167.6833,45.82,3.8
Quimper,0,FR,1630304490,94,48.0,-4.1,55.96,6.91
Saint-Pierre,0,RE,1630304490,71,-21.3393,55.4781,76.68,4.61
Watertown,1,US,1630304490,90,42.3709,-71.1828,71.46,1.99
Santiago,90,CL,1630304255,93,-33.4569,-70.6483,47.35,8.05
Wakkanai,75,JP,1630304491,78,45.4094,141.6739,71.58,9.22
Vitim,77,RU,1630304491,43,59.4511,112.5578,76.08,5.17
Yumen,100,CN,1630304492,27,40.2833,97.2,78.57,23.53
Bambous Virieux,75,MU,1630304492,69,-20.3428,57.7575,75.45,14.97
Treinta y Tres,24,UY,1630304492,97,-33.2333,-54.3833,52.29,6.49
Seminole,1,US,1630304013,94,28.7086,-81.2081,81.21,4.61
Glens Falls,99,US,1630304410,90,43.3095,-73.644,71.92,1.01
Cañete,100,CL,1630304493,94,-37.8,-73.4,49.87,3.76
Omboué,87,GA,1630304493,89,-1.5746,9.2618,73.4,4.59
Catuday,79,PH,1630304493,72,16.2923,119.8062,82.24,5.21
Dikson,100,RU,1630304493,95,73.5069,80.5464,41.13,9.08
Usta Muhammad,2,PK,1630304494,26,28.1794,68.0445,103.33,4.34
Mossamedes,55,AO,1630304494,85,-15.1961,12.1522,62.49,0.4
Zhoucheng,100,CN,1630304494,95,35.9122,116.3117,73.24,1.43
Bilibino,96,RU,1630304495,61,68.0546,166.4372,51.31,8.46
Batagay,96,RU,1630304495,66,67.6333,134.6333,54.64,6.96
Anchorage,1,US,1630304247,82,61.2181,-149.9003,55.35,3.0
Rock Springs,1,US,1630304495,25,41.5875,-109.2029,63.84,8.05
Zhuhai,20,CN,1630304496,83,22.2769,113.5678,92.79,17.27
Prince Rupert,90,CA,1630304496,93,54.3161,-130.3201,53.29,2.3
Beloha,52,MG,1630304496,77,-25.1667,45.05,67.87,9.78
Haicheng,23,CN,1630304497,45,40.8516,122.7475,83.26,10.16
Linfen,100,CN,1630304497,91,36.0889,111.5189,67.21,4.94
Qaqortoq,51,GL,1630304497,63,60.7167,-46.0333,43.3,4.52
De Aar,1,ZA,1630304498,18,-30.6497,24.0123,45.32,5.08
San Vicente de Cañete,55,PE,1630304498,81,-13.0751,-76.3835,62.01,4.05
Belaya Gora,97,RU,1630304498,74,68.5333,146.4167,50.11,6.55
Samarai,82,PG,1630304498,83,-10.6167,150.6667,81.43,15.57
Ballinasloe,37,IE,1630304499,95,53.3275,-8.2194,50.74,5.79
Neiafu,20,TO,1630304499,78,-18.65,-173.9833,75.88,8.05
El Alto,100,PE,1630304499,83,-4.2714,-81.2147,63.46,13.22
Belyy Yar,0,RU,1630304500,44,53.6039,91.3903,76.89,4.47
Homer,1,US,1630304500,83,59.6425,-151.5483,52.81,3.44
Baní,50,DO,1630304500,86,18.2833,-70.3333,76.19,6.64
Kulhudhuffushi,100,MV,1630304501,75,6.6221,73.07,82.54,16.53
Wukari,99,NG,1630304501,96,7.85,9.7833,73.18,4.36
Pokhara,98,NP,1630304501,81,28.2333,83.9833,75.81,3.15
La Rioja,94,ES,1630304464,55,42.25,-2.5,49.78,0.76
Flinders,98,AU,1630304502,54,-34.5833,150.8552,65.21,3.0
Vertientes,5,CU,1630304502,98,21.2594,-78.1464,77.61,6.93
Kargasok,100,RU,1630304502,90,59.0556,80.8572,46.63,5.1
Estrela,14,BR,1630304503,98,-28.0611,-50.9383,47.62,4.45
Westport,90,US,1630304503,93,41.1415,-73.3579,73.58,3.0
Solnechnyy,100,RU,1630304503,81,50.7214,136.6319,55.42,4.79
Amos,55,CA,1630304504,89,48.5669,-78.1162,66.47,13.8
Kuminskiy,82,RU,1630304504,50,58.6667,66.5667,58.82,7.18
Inta,100,RU,1630304504,92,66.0317,60.1659,43.92,15.46
Ust-Kuyga,99,RU,1630304505,87,70.0167,135.6,43.72,8.16
Halkirk,11,CA,1630304505,53,52.2834,-112.1518,53.17,8.52
Golden,1,US,1630304505,67,39.7555,-105.2211,68.36,1.99
Novoil'insk,82,RU,1630304506,40,51.6829,108.7143,73.98,3.44
Orlik,58,RU,1630304506,42,52.5178,99.825,65.12,2.84
Kot Addu,19,PK,1630304506,22,30.4692,70.9671,100.26,2.35
Bambanglipuro,100,ID,1630304507,69,-7.95,110.2833,81.91,15.41
Guerrero Negro,2,MX,1630304507,82,27.9769,-114.0611,71.91,12.93
Gmina Końskie,100,PL,1630304507,96,51.1917,20.4061,55.02,5.97
Bani Walid,1,LY,1630304508,68,31.7566,13.9942,78.51,9.78
Toucheng,85,TW,1630304508,72,24.8592,121.8233,93.15,10.09
Arrecife,20,ES,1630304508,88,28.963,-13.5477,71.67,14.97
Faya,39,SA,1630304509,13,18.3851,42.4509,81.12,7.78
Dzhebariki-Khaya,42,RU,1630304509,46,62.2167,135.8,62.02,3.4
Shiringushi,73,RU,1630304509,35,53.8485,42.7676,70.99,6.06
Flin Flon,84,CA,1630304400,62,54.7682,-101.865,59.92,2.86
Sunbury,20,AU,1630304510,52,-37.5833,144.7333,62.78,5.01
Kiruna,90,SE,1630304510,87,67.8557,20.2251,49.12,3.44
Adrar,45,MR,1630304510,15,20.5022,-10.0711,90.88,10.45
Sydney,0,AU,1630304504,56,-33.8679,151.2073,68.49,1.01
Arlit,22,NE,1630304511,29,18.7369,7.3853,90.91,6.58
Jumla,100,NP,1630304511,87,29.2747,82.1838,63.64,2.98
Godda,83,IN,1630304511,62,24.8333,87.2167,89.83,9.66
Ulladulla,100,AU,1630304512,56,-35.35,150.4667,62.76,5.73
Yuza,97,JP,1630304512,71,39.0,139.9167,78.85,9.22
Kem',47,RU,1630304512,68,64.9555,34.5793,49.75,5.26
Luba,96,GQ,1630304512,86,3.4568,8.5547,75.09,3.44
Hong Kong,19,HK,1630304296,72,22.2855,114.1577,91.96,13.76
Najrān,52,SA,1630304513,10,17.4924,44.1277,92.05,3.13
Asino,84,RU,1630304513,52,56.9979,86.1452,74.66,7.54
Hervey Bay,13,AU,1630304513,68,-25.2986,152.8535,77.04,11.61
Gunjur,75,GM,1630304514,100,13.2019,-16.7339,71.67,9.22
Port Angeles,1,US,1630304514,87,48.1181,-123.4307,60.73,19.57
Cortes,64,ES,1630304514,67,41.9395,-1.4396,65.03,7.47
Mahébourg,75,MU,1630304515,69,-20.4081,57.7,75.49,14.97
Río Gallegos,0,AR,1630304515,86,-51.6226,-69.2181,28.45,5.75
Mahon,20,ES,1630304388,73,39.8885,4.2658,72.16,2.3
Vidim,17,RU,1630304515,35,56.4088,103.1106,80.1,0.72
Rundu,0,NA,1630304516,13,-17.9333,19.7667,57.7,6.46
Defiance,20,US,1630304268,88,41.3334,-84.45,73.38,9.22
Tsumeb,0,NA,1630304516,14,-19.2333,17.7167,51.35,6.67
Makubetsu,75,JP,1630304516,78,45.3714,141.8211,71.31,9.22
Aksay,0,RU,1630304517,28,47.26,39.87,80.58,16.75
Lowestoft,91,GB,1630304517,95,52.4752,1.7516,59.95,16.06
Beira,75,MZ,1630304517,77,-19.8436,34.8389,66.29,9.22
Araouane,36,ML,1630304518,37,18.9048,-3.5265,89.47,7.05
Coyhaique,75,CL,1630304518,93,-45.5752,-72.0662,40.95,2.3
Udachny,79,RU,1630304518,52,66.4167,112.4,44.62,8.97
Ellisras,0,ZA,1630304519,60,-23.6649,27.7443,51.82,4.27
Itoman,20,JP,1630304519,64,26.1247,127.6694,89.98,9.22
Puno,51,PE,1630304519,72,-15.8333,-70.0333,41.23,4.52
Grasse,0,FR,1630304520,73,43.6667,6.9167,66.2,5.75
Borogontsy,42,RU,1630304520,45,62.6683,131.1683,67.53,7.78
Shingū,0,JP,1630304520,63,33.7333,135.9833,90.59,5.3
Merauke,87,ID,1630304521,79,-8.4667,140.3333,82.62,16.24
Belmonte,95,BR,1630304521,87,-15.8631,-38.8828,68.5,6.78
Vestmannaeyjar,97,IS,1630304521,95,63.4427,-20.2734,54.5,11.23
Xinmin,0,CN,1630304522,48,41.9908,122.8253,82.65,5.3
Mount Gambier,40,AU,1630304522,63,-37.8333,140.7667,60.71,19.57
Nainpur,100,IN,1630304522,72,22.4333,80.1167,84.07,7.14
St. George's,20,GD,1630304465,94,12.0564,-61.7485,78.48,0.0
Kyzyl-Mazhalyk,4,RU,1630304523,39,51.1333,90.6,73.22,2.95
Itupiranga,63,BR,1630304523,64,-5.1347,-49.3267,80.92,2.82
Morros,36,BR,1630304523,45,-9.4467,-46.3003,75.34,4.03
Linares,3,CL,1630304306,92,-35.85,-71.6,49.6,1.92
Adré,100,TD,1630304524,85,13.4667,22.2,72.57,5.99
Seoul,0,KR,1630304497,54,37.5683,126.9778,84.61,3.44
Navalmoral de la Mata,25,ES,1630304524,70,39.8916,-5.5406,64.96,4.63
Yabēlo,74,ET,1630304524,48,4.8833,38.0833,67.5,3.2
Neuquén,0,AR,1630304357,81,-38.9516,-68.0591,44.49,0.0
Shaunavon,22,CA,1630304525,43,49.6501,-108.4181,60.58,7.74
Tambopata,0,PE,1630304525,67,-12.7333,-69.1833,71.17,2.82
Dodge City,1,US,1630304525,95,37.7528,-100.0171,67.51,1.99
Aras,20,ES,1630304526,82,42.5617,-2.356,56.32,5.75
Dingli,40,MT,1630304526,73,35.8614,14.3822,77.81,6.91
Sheridan,1,US,1630304297,54,44.8333,-106.9173,66.38,4.61
Vágur,100,FO,1630304527,94,61.4732,-6.8119,53.1,13.09
Tanout,97,NE,1630304527,55,14.9709,8.8879,81.73,9.17
Bara,100,NG,1630304527,91,10.3744,10.7288,74.3,4.14
Cassilândia,12,BR,1630304528,73,-19.1133,-51.7342,65.62,4.76
Padang,44,ID,1630304528,72,-0.9492,100.3543,86.05,5.1
Laas,87,IT,1630304528,89,46.6166,10.7002,56.28,5.55
Husavik,100,IS,1630304529,80,66.0449,-17.3389,57.11,9.13
Ürümqi,0,CN,1630304529,26,43.801,87.6005,83.35,6.71
Noyabrsk,98,RU,1630304529,60,63.1994,75.4507,50.59,8.86
Shemordan,81,RU,1630304529,38,56.1856,50.3972,62.37,6.35
Raja,100,SS,1630304530,93,8.4596,25.678,68.54,0.92
Jérémie,79,HT,1630304530,89,18.65,-74.1167,79.83,5.61
Tianpeng,98,CN,1630304530,73,30.9866,103.9393,79.27,3.4
Sagua de Tánamo,69,CU,1630304531,94,20.5819,-75.2414,73.76,2.15
Bima,92,ID,1630304531,31,-8.4667,118.7167,95.47,10.74
Nome,90,US,1630304531,93,64.5011,-165.4064,49.15,18.41
Kiama,99,AU,1630304532,56,-34.6833,150.8667,65.37,6.71
Glazunovka,11,RU,1630304532,36,52.4986,36.3275,73.92,13.91
Deputatsky,92,RU,1630304532,71,69.3,139.9,45.82,7.47
Irecê,86,BR,1630304533,74,-11.3042,-41.8558,65.77,13.11
Sapa,68,PH,1630304533,73,5.1544,120.3241,83.82,6.58
Ola,35,RU,1630304533,74,59.5833,151.2833,59.04,8.88
Semey,20,KZ,1630304421,53,50.4111,80.2275,73.62,11.18
Waitati,21,NZ,1630304534,66,-45.75,170.5667,43.81,8.86
Mount Isa,1,AU,1630304534,8,-20.7333,139.5,92.97,8.05
Palu,74,ID,1630304530,79,-0.8917,119.8707,85.89,3.04
General Pico,0,AR,1630304534,47,-35.6566,-63.7568,57.85,11.25
Nouadhibou,0,MR,1630304535,61,20.931,-17.0347,76.98,19.57
Tshikapa,46,CD,1630304535,65,-6.4167,20.8,78.21,2.06
Agadez,4,NE,1630304535,11,19.75,10.25,85.51,8.46
Stornoway,75,GB,1630304536,82,58.2093,-6.3865,55.36,5.75
Bosobolo,92,CD,1630304536,95,4.1833,19.9,72.18,0.81
Ligayan,75,PH,1630304536,71,4.6533,119.4706,83.1,2.57
Mandapam,100,IN,1630304537,73,9.2833,79.1167,82.26,15.73
Acarí,41,PE,1630304537,65,-15.4311,-74.6158,65.7,2.1
Russell,1,US,1630304537,90,32.3502,-85.1999,75.96,0.0
Ullapool,67,GB,1630304538,87,57.8987,-5.1604,54.75,3.27
Gallatin,1,US,1630304538,55,45.6666,-111.2008,60.3,3.0
Santa Helena,65,BR,1630304538,96,-2.2311,-45.3,73.11,2.95
Soledade,0,BR,1630304539,89,-28.8183,-52.5103,52.32,6.53
Boguchany,56,RU,1630304539,51,58.3814,97.4531,74.25,3.18
Torrington,76,US,1630304539,97,41.8007,-73.1212,71.28,1.01
Gimbi,100,ET,1630304539,93,9.1667,35.8333,58.87,3.96
Pacific Grove,90,US,1630304540,91,36.6177,-121.9166,67.44,1.99
Krasnosel'kup,100,RU,1630304540,83,65.7,82.4667,49.3,12.3
Stoughton,90,US,1630304540,95,42.1251,-71.1023,70.75,1.01
Rawlins,1,US,1630304256,32,41.7911,-107.2387,55.62,3.44
Kushmurun,2,KZ,1630304541,34,52.4503,64.6311,61.09,5.1
Umm Kaddadah,100,SD,1630304541,59,13.6017,26.6876,80.29,6.89
Yokadouma,87,CM,1630304541,87,3.5167,15.05,71.62,2.66
Norden,97,DE,1630304542,91,53.6,7.2,62.94,12.3
Dayong,44,CN,1630304542,62,25.0209,118.2898,89.28,5.66
Alice Springs,32,AU,1630304542,9,-23.7,133.8833,81.95,8.05
Lata,53,PT,1630304543,96,40.1629,-8.3327,59.04,1.72
Newport,3,GB,1630304543,82,51.5877,-2.9984,59.86,13.33
Terme,50,TR,1630304543,70,41.2092,36.9739,78.73,7.11
Nishihara,20,JP,1630304544,66,26.1842,127.7558,89.26,12.66
Scottsbluff,1,US,1630304544,83,41.8666,-103.6672,66.78,1.99
Riyadh,0,SA,1630304468,10,24.6877,46.7219,100.45,8.05
Surab,37,PK,1630304544,31,28.4914,66.2585,81.46,7.2
Daman,100,IN,1630304545,77,20.4167,72.85,81.93,5.41
Yulara,0,AU,1630304545,7,-25.2406,130.9889,82.24,9.22
Nakatunguru,51,TZ,1630304545,66,-2.1167,33.0667,75.18,5.84
Taganak,100,PH,1630304546,72,6.0833,118.3,86.14,6.62
Tarko-Sale,63,RU,1630304546,57,64.9225,77.785,52.39,12.8
Leh,51,IN,1630304546,36,34.1667,77.5833,59.41,6.02
Ubari,6,LY,1630304546,14,26.5921,12.7805,88.36,3.74
Vostok,51,RU,1630304547,94,46.4856,135.8833,55.6,3.85
Alim,96,PH,1630304547,71,9.5649,122.4876,83.79,3.6
Manacor,70,ES,1630304547,67,39.5696,3.2096,74.34,2.59
Gubkinskiy,66,RU,1630304548,63,64.434,76.5026,50.47,13.38
Kupang,20,ID,1630304548,38,-10.1667,123.5833,91.98,17.27
Prudentópolis,86,BR,1630304548,87,-25.2131,-50.9778,55.42,4.05
Garoowe,92,SO,1630304549,41,8.4054,48.4845,82.78,23.58
Otjimbingwe,0,NA,1630304549,11,-22.35,16.1333,59.52,7.07
San Jose,20,US,1630304438,73,37.3394,-121.895,74.88,6.91
Vila Velha,40,BR,1630304549,78,-20.3297,-40.2925,69.75,8.05
San Juan,0,AR,1630304550,40,-31.5375,-68.5364,62.8,7.25
Bundaberg,40,AU,1630304550,72,-24.85,152.35,77.22,8.99
